     3.02           OBSERVATION DATA    G                   RINEX VERSION / TYPE
G = GPS  R = GLONASS  E = GALILEO  S = GEO  M = MIXED       COMMENT             
GNSS-SDR            wenminggong         20250430 084314 UTC PGM / RUN BY / DATE 
GPS OBSERVATION DATA FILE GENERATED BY GNSS-SDR             COMMENT             
GNSS-SDR VERSION 0.0.19.git-main-87fcfd237                  COMMENT             
See https://gnss-sdr.org                                    COMMENT             
DEFAULT MARKER NAME                                         MARKER NAME         
wenminggong         CTTC                                    OBSERVER / AGENCY   
GNSS-SDR            Software Receiver   0.0.19.gi           REC # / TYPE / VERS 
Antenna number      Antenna type                            ANT # / TYPE        
        0.0000        0.0000        0.0000                  APPROX POSITION XYZ 
        0.0000        0.0000        0.0000                  ANTENNA: DELTA H/E/N
G    4 C1C L1C D1C S1C                                      SYS / # / OBS TYPES 
DBHZ                                                        SIGNAL STRENGTH UNIT
  2019    06    07    04    50    8.5000000     GPS         TIME OF FIRST OBS   
                                                            END OF HEADER       
> 2019 06 07 04 50 08.5000000  0  8                                             
G01  20156360.268 8 105922387.766 8     -1164.238 8        53.195               
G07  20601979.306 7 108264131.746 7      -324.426 7        44.183               
G07  20601979.288 7 108264131.746 7      -324.427 7        44.183               
G11  20739328.003 6 108985903.838 6      -385.196 6        40.706               
G18  21156041.700 5 111175749.959 5       402.231 5        33.661               
G11  20739327.985 6 108985903.838 6      -385.197 6        40.706               
G01  20156360.268 8 105922387.766 8     -1164.238 8        53.195               
G07  20601979.288 7 108264131.746 7      -324.427 7        44.183               
> 2019 06 07 04 50 09.0000000  0  8                                             
G01  20156391.733 8 105923531.813 8     -1163.940 8        53.196               
G07  20602084.216 7 108264856.116 7      -327.175 7        43.116               
G07  20602084.216 7 108264856.116 7      -327.183 7        43.116               
G11  20739433.911 7 108986658.928 7      -391.952 7        42.036               
G18  21156236.924 5 111176117.021 5       395.463 5        34.342               
G11  20739433.911 7 108986658.928 7      -391.952 7        42.035               
G01  20156391.733 8 105923531.813 8     -1163.940 8        53.196               
G07  20602084.216 7 108264856.116 7      -327.183 7        43.116               
> 2019 06 07 04 50 42.5000000  0  8                                             
G01  20161200.193 8 105947821.743 8     -1138.329 8        52.384               
G07  20612261.192 7 108318163.958 7      -304.423 7        43.445               
G07  20612261.203 7 108318163.958 7      -304.424 7        43.445               
G11  20749168.640 7 109037616.550 7      -372.896 7        46.686               
G22  23063232.287 7 121198103.282 7     -3285.019 7        43.443               
G11  20749168.640 7 109037616.550 7      -372.897 7        46.685               
G01  20161200.193 8 105947821.743 8     -1138.329 8        52.384               
G07  20612261.192 7 108318163.958 7      -304.423 7        43.445               
> 2019 06 07 04 50 43.0000000  0  8                                             
G01  20161276.137 8 105949193.474 8     -1139.383 8        51.830               
G07  20612407.907 7 108319117.197 7      -293.527 7        43.298               
G07  20612407.907 7 108319117.197 7      -293.527 7        43.298               
G11  20749320.793 7 109038604.027 7      -367.650 7        47.424               
G22  23063101.615 7 121200548.408 7     -3283.828 7        43.057               
G11  20749320.811 7 109038604.027 7      -367.651 7        47.422               
G01  20161276.137 8 105949193.474 8     -1139.383 8        51.830               
G07  20612407.907 7 108319117.197 7      -293.527 7        43.299               
> 2019 06 07 04 50 43.5000000  0  8                                             
G01  20161360.952 8 105950592.989 8     -1137.882 8        51.943               
G07  20612564.708 7 108320098.248 7      -304.263 7        43.369               
G07  20612564.715 7 108320098.248 7      -304.255 7        43.367               
G11  20749477.867 7 109039619.384 7      -374.859 7        47.120               
G22  23062984.236 7 121203021.394 7     -3282.985 7        42.467               
G11  20749477.867 7 109039619.384 7      -374.860 7        47.119               
G01  20161360.952 8 105950592.989 8     -1137.882 8        51.944               
G07  20612564.715 7 108320098.248 7      -304.253 7        43.368               
> 2019 06 07 04 50 44.0000000  0  8                                             
G01  20161414.659 8 105951848.499 8     -1137.355 8        52.469               
G07  20612708.879 7 108320935.305 7      -298.060 7        43.323               
G07  20612708.879 7 108320935.305 7      -298.059 7        43.323               
G11  20749606.132 7 109040490.788 7      -369.023 7        46.692               
G22  23062833.884 7 121205350.489 7     -3281.809 7        42.354               
G11  20749606.132 7 109040490.788 7      -369.024 7        46.692               
G01  20161414.659 8 105951848.499 8     -1137.355 8        52.469               
G07  20612708.879 7 108320935.305 7      -298.059 7        43.323               
> 2019 06 07 04 50 44.5000000  0  8                                             
G01  20161507.592 8 105953295.136 8     -1137.820 8        52.582               
G07  20612877.636 7 108321963.512 7      -293.854 7        43.484               
G07  20612877.625 7 108321963.512 7      -293.853 7        43.483               
G11  20749768.208 7 109041553.386 7      -372.302 7        46.103               
G22  23062722.968 6 121207870.791 6     -3286.327 6        41.689               
G11  20749768.208 7 109041553.386 7      -372.302 7        46.104               
G01  20161507.592 8 105953295.136 8     -1137.820 8        52.582               
G07  20612877.625 7 108321963.512 7      -293.853 7        43.484               
> 2019 06 07 04 50 45.0000000  0  8                                             
G01  20161586.140 8 105954663.758 8     -1136.918 8        52.821               
G07  20613030.097 7 108322913.703 7      -305.137 7        43.073               
G07  20613030.097 7 108322913.703 7      -305.134 7        43.072               
G11  20749920.445 7 109042538.041 7      -368.636 7        46.267               
G22  23062597.513 6 121210313.145 6     -3279.012 6        40.857               
G11  20749920.445 7 109042538.041 7      -368.648 7        46.268               
G01  20161586.140 8 105954663.758 8     -1136.918 8        52.821               
G07  20613030.097 7 108322913.703 7      -305.137 7        43.072               
> 2019 06 07 04 50 45.5000000  0  8                                             
G01  20161636.499 8 105955900.522 8     -1138.065 8        52.975               
G07  20613159.935 7 108323732.068 7      -299.556 7        42.655               
G07  20613159.935 7 108323732.068 7      -299.554 7        42.655               
G11  20750047.587 7 109043390.910 7      -367.657 7        46.399               
G22  23062453.421 6 121212623.737 6     -3282.260 6        40.048               
G11  20750047.587 7 109043390.910 7      -367.657 7        46.399               
G01  20161636.499 8 105955900.522 8     -1138.065 8        52.975               
G07  20613159.935 7 108323732.068 7      -299.554 7        42.655               
> 2019 06 07 04 50 46.0000000  0  8                                             
G01  20161694.038 8 105957164.803 8     -1136.859 8        53.043               
G07  20613299.368 7 108324577.990 7      -301.582 7        42.120               
G07  20613299.368 7 108324577.990 7      -301.595 7        42.120               
G11  20750178.727 7 109044271.376 7      -372.061 7        46.684               
G22  23062318.050 6 121214961.936 6     -3290.455 6        41.101               
G11  20750178.727 7 109044271.376 7      -372.047 7        46.684               
G01  20161694.038 8 105957164.803 8     -1136.859 8        53.043               
G07  20613299.368 7 108324577.990 7      -301.582 7        42.119               
> 2019 06 07 04 50 46.5000000  0  8                                             
G01  20161779.007 8 105958566.114 8     -1136.612 8        53.118               
G07  20613461.744 7 108325560.928 7      -304.420 7        42.081               
G07  20613461.744 7 108325560.928 7      -304.420 7        42.081               
G11  20750335.135 7 109045288.924 7      -368.561 7        46.455               
G22  23062196.235 6 121217437.274 6     -3278.117 6        41.137               
G11  20750335.135 7 109045288.924 7      -368.561 7        46.455               
G01  20161779.007 8 105958566.114 8     -1136.612 8        53.117               
G07  20613461.744 7 108325560.928 7      -304.420 7        42.081               
> 2019 06 07 04 50 47.0000000  0  8                                             
G01  20161842.016 8 105959859.574 8     -1135.271 8        53.342               
G07  20613607.600 7 108326436.055 7      -303.557 7        42.490               
G07  20613607.600 7 108326436.055 7      -303.556 7        42.490               
G11  20750472.791 7 109046198.694 7      -367.324 7        47.131               
G22  23062055.323 7 121219804.852 7     -3287.725 7        42.640               
G11  20750472.791 7 109046198.694 7      -367.324 7        47.131               
G01  20161842.016 8 105959859.574 8     -1135.271 8        53.342               
G07  20613607.600 7 108326436.055 7      -303.553 7        42.490               
> 2019 06 07 04 50 47.5000000  0  8                                             
G01  20161938.754 8 105961318.080 8     -1135.319 8        52.857               
G07  20613777.790 7 108327476.254 7      -298.220 7        42.591               
G07  20613777.790 7 108327476.254 7      -298.220 7        42.591               
G11  20750639.270 7 109047273.590 7      -367.742 7        46.911               
G22  23061944.946 7 121222337.561 7     -3280.049 7        42.806               
G11  20750639.281 7 109047273.590 7      -367.742 7        46.911               
G01  20161938.754 8 105961318.080 8     -1135.319 8        52.857               
G07  20613777.790 7 108327476.254 7      -298.220 7        42.591               
> 2019 06 07 04 50 48.0000000  0  8                                             
G01  20162004.781 8 105962633.586 8     -1132.096 8        52.666               
G07  20613924.660 7 108328373.423 7      -293.825 7        42.490               
G07  20613924.670 7 108328373.423 7      -293.825 7        42.490               
G11  20750779.536 7 109048205.550 7      -369.595 7        46.736               
G22  23061808.175 7 121224727.354 7     -3284.003 7        43.386               
G11  20750779.536 7 109048205.550 7      -369.595 7        46.737               
G01  20162004.781 8 105962633.586 8     -1132.096 8        52.666               
G07  20613924.652 7 108328373.423 7      -293.824 7        42.489               
> 2019 06 07 04 51 18.5000000  0 13                                             
G01  20166557.145 8 105975972.216 8     -1112.174 8        48.755               
G03  23341367.750 8 122659714.218 8     -4263.984 8        49.242               
G07  20623318.281 5 108376268.243 5      -277.424 5        31.816               
G07  20623317.573 5 108376264.330 5      -269.644 5        31.675               
G03  23341367.750 8 122659714.218 8     -4263.985 8        49.242               
G11  20759781.625 7 109093388.550 7      -355.637 7        47.977               
G22  23053877.433 7 121148943.766 7     -3274.599 7        46.550               
G22  23053877.433 7 121148943.766 7     -3274.599 7        46.550               
G22  23053877.433 7 121148943.767 7     -3274.599 7        46.550               
G22  23053877.433 7 121148943.766 7     -3274.599 7        46.550               
G11  20759781.625 7 109093388.550 7      -355.637 7        47.976               
G01  20166557.145 8 106044452.216 8     -1112.174 8        48.755               
G07  20623317.566 5 108376264.330 5      -269.443 5        31.686               
> 2019 06 07 04 51 19.0000000  0 13                                             
G01  20166637.458 8 105977323.861 8     -1113.193 8        48.077               
G03  23341150.281 8 122662642.104 8     -4266.516 8        48.789               
G07  20623481.976 5 108377202.872 5      -289.451 5        32.580               
G07  20623481.754 5 108377198.873 5      -289.182 5        32.479               
G03  23341150.281 8 122662642.104 8     -4266.516 8        48.789               
G11  20759931.306 8 109094360.971 8      -352.818 8        48.893               
G22  23053751.146 7 121151375.152 7     -3272.754 7        46.737               
G22  23053751.146 7 121151375.152 7     -3272.755 7        46.737               
G22  23053751.146 7 121151375.153 7     -3272.754 7        46.737               
G22  23053751.146 7 121151375.152 7     -3272.755 7        46.737               
G11  20759931.306 8 109094360.971 8      -352.818 8        48.893               
G01  20166637.458 8 106045803.861 8     -1113.193 8        48.077               
G07  20623481.754 5 108377198.873 5      -289.182 5        32.486               
> 2019 06 07 04 51 19.5000000  0 13                                             
G01  20166713.549 8 105978656.745 8     -1109.762 8        48.193               
G03  23340928.316 8 122665551.360 8     -4266.811 8        48.915               
G07  20623634.186 5 108378118.481 5      -267.749 5        31.901               
G07  20623634.264 5 108378114.482 5      -267.652 5        31.921               
G03  23340928.316 8 122665551.360 8     -4266.810 8        48.915               
G11  20760079.711 8 109095314.707 8      -353.408 8        49.078               
G22  23053619.363 7 121153787.852 7     -3271.065 7        46.180               
G22  23053619.363 7 121153787.852 7     -3271.065 7        46.180               
G22  23053619.363 7 121153787.853 7     -3271.065 7        46.181               
G22  23053619.363 7 121153787.852 7     -3271.064 7        46.181               
G11  20760079.711 8 109095314.707 8      -353.408 8        49.078               
G01  20166713.549 8 106047136.745 8     -1109.762 8        48.193               
G07  20623634.311 5 108378114.482 5      -267.697 5        31.859               
> 2019 06 07 04 51 20.0000000  0 13                                             
G01  20166772.974 8 105979902.677 8     -1108.936 8        48.468               
G03  23340688.923 8 122668373.819 8     -4265.885 8        48.967               
G07  20623798.428 5 108378947.235 5      -252.870 5        32.756               
G07  20623798.428 5 108378943.235 5      -252.854 5        32.757               
G03  23340688.923 8 122668373.819 8     -4265.885 8        48.967               
G11  20760209.487 8 109096181.545 8      -353.822 8        49.427               
G22  23053474.101 7 121156113.683 7     -3270.304 7        46.411               
G22  23053474.101 7 121156113.683 7     -3270.304 7        46.411               
G22  23053474.093 7 121156113.684 7     -3270.304 7        46.411               
G22  23053474.101 7 121156113.683 7     -3270.304 7        46.411               
G11  20760209.494 8 109096181.545 8      -353.822 8        49.427               
G01  20166772.974 8 106048382.677 8     -1108.936 8        48.468               
G07  20623798.428 5 108378943.235 5      -252.872 5        32.722               
> 2019 06 07 04 51 20.5000000  0 13                                             
G01  20166833.399 7 105981156.217 7     -1111.841 7        47.471               
G03  23340450.732 8 122671204.031 8     -4265.293 8        50.305               
G07  20623949.962 5 108379781.932 5      -298.714 5        31.477               
G07  20623949.045 5 108379775.018 5      -299.270 5        31.354               
G03  23340450.732 8 122671204.031 8     -4265.293 8        50.306               
G11  20760343.385 8 109097056.059 8      -352.176 8        49.604               
G22  23053332.690 7 121158447.222 7     -3270.872 7        46.187               
G22  23053332.690 7 121158447.222 7     -3270.880 7        46.187               
G22  23053332.690 7 121158447.223 7     -3270.880 7        46.187               
G22  23053332.690 7 121158447.222 7     -3270.872 7        46.187               
G11  20760343.374 8 109097056.059 8      -352.176 8        49.604               
G01  20166833.399 7 106049636.217 7     -1111.841 7        47.471               
G07  20623948.942 5 108379775.017 5      -299.229 5        31.372               
> 2019 06 07 04 51 21.0000000  0 13                                             
G01  20166956.504 7 105982746.002 7     -1111.033 7        47.567               
G03  23340280.443 8 122674370.612 8     -4264.263 8        49.610               
G07  20624079.257 5 108380983.640 5      -397.385 5        30.315               
G07  20624075.962 5 108380958.469 5      -339.308 5        30.349               
G03  23340280.443 8 122674370.612 8     -4264.263 8        49.610               
G11  20760542.219 8 109098266.889 8      -354.376 8        50.112               
G22  23053249.921 7 121161117.057 7     -3272.326 7        45.667               
G22  23053249.921 7 121161117.058 7     -3272.326 7        45.667               
G22  23053249.921 7 121161117.059 7     -3272.326 7        45.667               
G22  23053249.921 7 121161117.058 7     -3272.326 7        45.668               
G11  20760542.219 8 109098266.889 8      -354.376 8        50.113               
G01  20166956.504 7 106051226.002 7     -1111.032 7        47.567               
G07  20624074.980 5 108380955.486 5      -287.979 5        30.448               
> 2019 06 07 04 52 35.0000000  0 13                                             
G01  20178507.131 7 106038770.567 7     -1054.706 7        47.741               
G03  23307094.335 7 122479606.147 7     -4251.605 7        42.485               
G03  23307094.299 7 122479606.147 7     -4251.618 7        42.487               
G11  20782600.860 8 109213304.856 8      -318.854 8        49.674               
G22  23034197.281 7 121045523.440 7     -3242.106 7        45.760               
G22  23034197.281 7 121045523.440 7     -3242.105 7        45.759               
G22  23034197.281 7 121045523.441 7     -3242.105 7        45.760               
G07  20647384.227 7 108502735.937 7      -224.981 7        45.930               
G22  23034197.281 7 121045523.440 7     -3242.105 7        45.760               
G07  20647384.227 7 108502735.937 7      -224.981 7        45.930               
G11  20782600.860 8 109213304.856 8      -318.854 8        49.674               
G01  20178507.131 7 106038770.567 7     -1054.706 7        47.741               
G07  20647384.227 7 108502735.937 7      -224.981 7        45.930               
> 2019 06 07 04 52 35.5000000  0 13                                             
G01  20178590.566 7 106040087.729 7     -1052.426 7        47.487               
G03  23306881.905 6 122482521.536 6     -4251.546 6        41.936               
G03  23306881.915 6 122482521.536 6     -4251.523 6        41.937               
G11  20782754.263 8 109214253.511 8      -317.523 8        50.359               
G22  23034073.851 7 121047933.419 7     -3242.023 7        45.810               
G22  23034073.851 7 121047933.419 7     -3242.024 7        45.810               
G22  23034073.851 7 121047933.420 7     -3242.025 7        45.814               
G07  20647544.076 7 108503638.657 7      -228.746 7        45.014               
G22  23034073.851 7 121047933.419 7     -3242.024 7        45.811               
G07  20647544.094 7 108503638.657 7      -228.733 7        45.016               
G11  20782754.263 8 109214253.511 8      -317.523 8        50.359               
G01  20178590.566 7 106040087.729 7     -1052.426 7        47.488               
G07  20647544.094 7 108503638.657 7      -228.733 7        45.016               
> 2019 06 07 04 52 36.0000000  0 13                                             
G01  20178661.565 8 106041345.447 8     -1053.053 8        48.205               
G03  23306652.610 6 122485377.683 6     -4257.094 6        41.966               
G03  23306652.610 6 122485377.683 6     -4257.094 6        41.966               
G11  20782895.355 8 109215142.813 8      -317.275 8        49.986               
G22  23033938.357 7 121050284.074 7     -3239.865 7        46.212               
G22  23033938.357 7 121050284.074 7     -3239.865 7        46.212               
G22  23033938.357 7 121050284.075 7     -3239.865 7        46.213               
G07  20647700.384 7 108504481.948 7      -228.173 7        45.060               
G22  23033938.357 7 121050284.074 7     -3239.865 7        46.212               
G07  20647700.374 7 108504481.948 7      -228.174 7        45.060               
G11  20782895.355 8 109215142.813 8      -317.275 8        49.986               
G01  20178661.565 8 106041345.447 8     -1053.053 8        48.204               
G07  20647700.374 7 108504481.948 7      -228.174 7        45.060               
> 2019 06 07 04 52 36.5000000  0 13                                             
G01  20178763.372 8 106042748.433 8     -1057.413 8        48.156               
G03  23306459.592 7 122488379.172 7     -4252.448 7        42.246               
G03  23306459.592 7 122488379.172 7     -4252.447 7        42.246               
G11  20783064.944 8 109216177.413 8      -318.095 8        49.998               
G22  23033833.584 7 121052780.046 7     -3243.222 7        46.059               
G22  23033833.594 7 121052780.046 7     -3243.225 7        46.058               
G22  23033833.602 7 121052780.047 7     -3243.233 7        46.058               
G07  20647870.637 7 108505470.479 7      -224.258 7        45.567               
G22  23033833.584 7 121052780.046 7     -3243.210 7        46.059               
G07  20647870.637 7 108505470.479 7      -224.258 7        45.568               
G11  20783064.944 8 109216177.413 8      -318.095 8        49.999               
G01  20178763.372 8 106042748.433 8     -1057.412 8        48.157               
G07  20647870.637 7 108505470.479 7      -224.258 7        45.567               
> 2019 06 07 04 52 37.0000000  0 13                                             
G01  20178840.898 8 106044031.899 8     -1055.260 8        48.005               
G03  23306228.979 6 122491261.338 6     -4254.304 6        41.814               
G03  23306228.979 6 122491261.338 6     -4254.304 6        41.814               
G11  20783213.915 8 109217092.621 8      -316.171 8        49.797               
G22  23033704.118 7 121055156.620 7     -3239.874 7        45.952               
G22  23033704.100 7 121055156.620 7     -3239.874 7        45.952               
G22  23033704.118 7 121055156.622 7     -3239.873 7        45.951               
G07  20648024.820 7 108506339.556 7      -222.404 7        45.277               
G22  23033704.108 7 121055156.620 7     -3239.873 7        45.953               
G07  20648024.820 7 108506339.556 7      -222.404 7        45.278               
G11  20783213.915 8 109217092.621 8      -316.172 8        49.797               
G01  20178840.898 8 106044031.899 8     -1055.260 8        48.005               
G07  20648024.820 7 108506339.556 7      -222.404 7        45.277               
> 2019 06 07 04 52 37.5000000  0 13                                             
G01  20178913.838 8 106045300.536 8     -1051.516 8        48.216               
G03  23305998.813 6 122494128.797 6     -4249.841 6        41.814               
G03  23305998.813 6 122494128.797 6     -4249.841 6        41.814               
G11  20783358.803 8 109217993.043 8      -320.994 8        49.593               
G22  23033570.451 7 121057518.441 7     -3244.738 7        46.166               
G22  23033570.462 7 121057518.441 7     -3244.736 7        46.166               
G22  23033570.444 7 121057518.442 7     -3244.737 7        46.165               
G07  20648176.140 7 108507193.805 7      -227.102 7        45.502               
G22  23033570.462 7 121057518.441 7     -3244.736 7        46.166               
G07  20648176.140 7 108507193.805 7      -227.102 7        45.502               
G11  20783358.803 8 109217993.043 8      -320.994 8        49.593               
G01  20178913.838 8 106045300.536 8     -1051.516 8        48.216               
G07  20648176.140 7 108507193.805 7      -227.102 7        45.502               
> 2019 06 07 04 52 38.0000000  0 13                                             
G01  20178977.478 7 106046522.685 7     -1053.926 7        47.952               
G03  23305748.016 7 122496949.921 7     -4253.337 7        42.042               
G03  23305748.027 7 122496949.921 7     -4253.337 7        42.042               
G11  20783497.005 8 109218847.042 8      -320.153 8        50.554               
G22  23033427.306 7 121059833.851 7     -3243.251 7        46.376               
G22  23033427.306 7 121059833.851 7     -3243.250 7        46.375               
G22  23033427.306 7 121059833.852 7     -3243.250 7        46.375               
G07  20648317.767 7 108508001.572 7      -224.915 7        45.752               
G22  23033427.306 7 121059833.851 7     -3243.250 7        46.376               
G07  20648317.767 7 108508001.572 7      -224.915 7        45.752               
G11  20783497.005 8 109218847.042 8      -320.153 8        50.554               
G01  20178977.478 7 106046522.685 7     -1053.926 7        47.952               
G07  20648317.767 7 108508001.572 7      -224.915 7        45.752               
> 2019 06 07 04 52 38.5000000  0 13                                             
G01  20179047.423 7 106047772.954 7     -1053.300 7        47.543               
G03  23305509.563 6 122499799.299 6     -4249.236 6        41.980               
G03  23305509.563 6 122499799.299 6     -4249.236 6        41.981               
G11  20783637.908 8 109219729.241 8      -318.146 8        50.640               
G22  23033292.709 7 121062177.473 7     -3239.314 7        46.846               
G22  23033292.698 7 121062177.473 7     -3239.315 7        46.846               
G22  23033292.698 7 121062177.474 7     -3239.315 7        46.846               
G07  20648469.762 7 108508837.513 7      -227.404 7        46.012               
G22  23033292.698 7 121062177.473 7     -3239.315 7        46.846               
G07  20648469.762 7 108508837.512 7      -227.404 7        46.012               
G11  20783637.908 8 109219729.241 8      -318.146 8        50.640               
G01  20179047.423 7 106047772.954 7     -1053.300 7        47.543               
G07  20648469.762 7 108508837.513 7      -227.404 7        46.012               
> 2019 06 07 04 52 39.0000000  0 13                                             
G01  20179108.339 7 106048976.961 7     -1053.870 7        47.651               
G03  23305255.066 6 122502602.551 6     -4255.126 6        41.125               
G03  23305255.066 6 122502602.551 6     -4255.127 6        41.125               
G11  20783770.621 8 109220565.240 8      -318.258 8        50.291               
G22  23033150.012 7 121064474.905 7     -3236.932 7        46.378               
G22  23033150.012 7 121064474.905 7     -3236.932 7        46.378               
G22  23033150.012 7 121064474.907 7     -3236.932 7        46.378               
G07  20648616.501 7 108509627.180 7      -223.616 7        45.599               
G22  23033150.012 7 121064474.905 7     -3236.932 7        46.378               
G07  20648616.501 7 108509627.180 7      -223.616 7        45.599               
G11  20783770.621 8 109220565.240 8      -318.258 8        50.291               
G01  20179108.339 7 106048976.961 7     -1053.870 7        47.650               
G07  20648616.490 7 108509627.180 7      -223.631 7        45.598               
> 2019 06 07 04 52 39.5000000  0 13                                             
G01  20179187.651 7 106050267.165 7     -1053.898 7        47.122               
G03  23305017.831 6 122505492.138 6     -4253.323 6        41.113               
G03  23305017.831 6 122505492.138 6     -4253.319 6        41.113               
G11  20783920.234 8 109221487.509 8      -315.873 8        50.444               
G22  23033019.379 7 121066858.623 7     -3241.379 7        46.459               
G22  23033019.379 7 121066858.623 7     -3241.379 7        46.459               
G22  23033019.379 7 121066858.624 7     -3241.387 7        46.459               
G07  20648776.375 7 108510503.078 7      -226.578 7        45.688               
G22  23033019.379 7 121066858.623 7     -3241.379 7        46.459               
G07  20648776.368 7 108510503.078 7      -226.579 7        45.687               
G11  20783920.234 8 109221487.509 8      -315.873 8        50.444               
G01  20179187.651 7 106050267.165 7     -1053.898 7        47.122               
G07  20648776.368 7 108510503.078 7      -226.579 7        45.686               
> 2019 06 07 04 52 40.0000000  0 13                                             
G01  20179268.946 7 106051565.611 7     -1050.351 7        47.159               
G03  23304783.504 6 122508390.073 6     -4245.830 6        39.585               
G03  23304783.504 6 122508390.073 6     -4245.766 6        39.585               
G11  20784071.405 8 109222418.076 8      -318.126 8        50.971               
G22  23032893.184 7 121069250.661 7     -3241.525 7        46.024               
G22  23032893.184 7 121069250.661 7     -3241.525 7        46.024               
G22  23032893.184 7 121069250.662 7     -3241.525 7        46.024               
G07  20648936.174 7 108511387.199 7      -220.389 7        46.035               
G22  23032893.184 7 121069250.661 7     -3241.525 7        46.024               
G07  20648936.174 7 108511387.199 7      -220.389 7        46.036               
G11  20784071.405 8 109222418.076 8      -318.126 8        50.971               
G01  20179268.946 7 106051565.611 7     -1050.351 7        47.159               
G07  20648936.174 7 108511387.199 7      -220.389 7        46.036               
> 2019 06 07 04 52 40.5000000  0 13                                             
G01  20179326.676 7 106052770.064 7     -1052.640 7        46.672               
G03  23304542.877 6 122511194.236 6     -4253.380 6        39.569               
G03  23304542.877 6 122511194.236 6     -4253.380 6        39.570               
G11  20784203.915 8 109223254.751 8      -316.258 8        50.781               
G22  23032739.886 7 121071548.780 7     -3240.347 7        45.524               
G22  23032739.886 7 121071548.780 7     -3240.347 7        45.524               
G22  23032739.886 7 121071548.782 7     -3240.347 7        45.524               
G07  20649078.637 7 108512177.390 7      -224.880 7        46.254               
G22  23032739.886 7 121071548.780 7     -3240.347 7        45.524               
G07  20649078.637 7 108512177.390 7      -224.880 7        46.255               
G11  20784203.915 8 109223254.751 8      -316.258 8        50.781               
G01  20179326.676 7 106052770.064 7     -1052.640 7        46.672               
G07  20649078.637 7 108512177.390 7      -224.880 7        46.255               
> 2019 06 07 04 52 41.0000000  0 13                                             
G01  20179427.677 7 106054159.431 7     -1053.479 7        46.704               
G03  23304327.019 6 122514183.400 6     -4241.334 6        39.447               
G03  23304327.037 6 122514183.400 6     -4241.339 6        39.446               
G11  20784372.328 8 109224276.392 8      -317.049 8        50.806               
G22  23032623.190 7 121074031.900 7     -3237.551 7        45.336               
G22  23032623.190 7 121074031.900 7     -3237.550 7        45.337               
G22  23032623.190 7 121074031.901 7     -3237.550 7        45.336               
G07  20649257.420 7 108513152.482 7      -219.687 7        46.539               
G22  23032623.172 7 121074031.900 7     -3237.541 7        45.336               
G07  20649257.412 7 108513152.482 7      -219.687 7        46.539               
G11  20784372.328 8 109224276.392 8      -317.049 8        50.806               
G01  20179427.677 7 106054159.431 7     -1053.479 7        46.704               
G07  20649257.420 7 108513152.482 7      -219.687 7        46.539               
> 2019 06 07 04 52 41.5000000  0 13                                             
G01  20179501.745 7 106055426.121 7     -1048.541 7        46.817               
G03  23304102.923 6 122517050.033 6     -4247.437 6        38.701               
G03  23304102.916 6 122517050.033 6     -4247.436 6        38.700               
G11  20784516.646 8 109225175.427 8      -314.731 8        50.790               
G22  23032487.229 7 121076392.427 7     -3240.977 7        44.300               
G22  23032487.229 7 121076392.427 7     -3240.977 7        44.301               
G22  23032487.229 7 121076392.428 7     -3240.977 7        44.301               
G07  20649416.146 7 108514004.927 7      -218.679 7        47.753               
G22  23032487.229 7 121076392.427 7     -3240.988 7        44.300               
G07  20649416.146 7 108514004.927 7      -218.679 7        47.753               
G11  20784516.646 8 109225175.427 8      -314.731 8        50.791               
G01  20179501.745 7 106055426.121 7     -1048.541 7        46.816               
G07  20649416.146 7 108514004.927 7      -218.680 7        47.753               
> 2019 06 07 04 52 42.0000000  0 13                                             
G01  20179562.830 7 106056636.686 7     -1048.380 7        46.422               
G03  23303866.005 6 122519860.688 6     -4244.650 6        38.304               
G03  23303865.880 6 122519860.688 6     -4244.609 6        38.303               
G11  20784651.336 8 109226018.394 8      -317.192 8        50.334               
G22  23032341.144 7 121078696.905 7     -3243.662 7        44.807               
G22  23032341.154 7 121078696.905 7     -3243.674 7        44.807               
G22  23032341.154 7 121078696.906 7     -3243.674 7        44.807               
G07  20649559.987 7 108514801.255 7      -220.051 7        47.435               
G22  23032341.154 7 121078696.905 7     -3243.674 7        44.806               
G07  20649559.987 7 108514801.255 7      -220.051 7        47.436               
G11  20784651.336 8 109226018.394 8      -317.192 8        50.334               
G01  20179562.830 7 106056636.686 7     -1048.380 7        46.422               
G07  20649559.987 7 108514801.255 7      -220.051 7        47.435               
> 2019 06 07 04 52 42.5000000  0 13                                             
G01  20179668.938 7 106058047.199 7     -1052.166 7        45.855               
G03  23303672.534 6 122522871.434 6     -4261.906 6        38.204               
G03  23303672.534 6 122522871.434 6     -4261.905 6        38.207               
G11  20784823.669 8 109227061.399 8      -316.289 8        50.593               
G22  23032233.124 7 121081201.411 7     -3241.242 7        45.357               
G22  23032233.113 7 121081201.411 7     -3241.252 7        45.357               
G22  23032233.113 7 121081201.412 7     -3241.242 7        45.358               
G07  20649740.810 7 108515797.549 7      -219.604 7        47.596               
G22  23032233.113 7 121081201.411 7     -3241.238 7        45.357               
G07  20649740.810 7 108515797.549 7      -219.604 7        47.596               
G11  20784823.669 8 109227061.399 8      -316.290 8        50.593               
G01  20179668.938 7 106058047.199 7     -1052.165 7        45.855               
G07  20649740.810 7 108515797.549 7      -219.604 7        47.596               
> 2019 06 07 04 52 43.0000000  0 13                                             
G01  20179750.586 7 106059347.674 7     -1050.323 7        45.983               
G03  23303457.694 6 122525772.299 6     -4248.765 6        39.077               
G03  23303457.704 6 122525772.299 6     -4248.764 6        39.080               
G11  20784974.669 8 109227994.449 8      -316.253 8        50.657               
G22  23032109.051 7 121083596.001 7     -3236.759 7        45.562               
G22  23032109.051 7 121083596.001 7     -3236.759 7        45.561               
G22  23032109.051 7 121083596.002 7     -3236.759 7        45.562               
G07  20649900.787 7 108516683.848 7      -222.971 7        47.567               
G22  23032109.051 7 121083596.001 7     -3236.759 7        45.561               
G07  20649900.787 7 108516683.848 7      -222.971 7        47.567               
G11  20784974.669 8 109227994.449 8      -316.253 8        50.657               
G01  20179750.586 7 106059347.674 7     -1050.323 7        45.983               
G07  20649900.787 7 108516683.848 7      -222.971 7        47.567               
> 2019 06 07 04 52 43.5000000  0 13                                             
G01  20179825.024 7 106060615.242 7     -1049.108 7        46.635               
G03  23303231.327 6 122528640.377 6     -4258.842 6        38.218               
G03  23303231.355 6 122528640.377 6     -4258.844 6        38.220               
G11  20785120.220 8 109228894.628 8      -315.804 8        51.158               
G22  23031972.012 7 121085957.720 7     -3237.424 7        45.195               
G22  23031972.012 7 121085957.720 7     -3237.424 7        45.194               
G22  23031972.012 7 121085957.721 7     -3237.424 7        45.195               
G07  20650057.988 7 108517537.224 7      -220.841 7        47.186               
G22  23031972.012 7 121085957.720 7     -3237.424 7        45.195               
G07  20650057.988 7 108517537.224 7      -220.841 7        47.186               
G11  20785120.220 8 109228894.628 8      -315.804 8        51.158               
G01  20179825.024 7 106060615.242 7     -1049.108 7        46.635               
G07  20650057.988 7 108517537.224 7      -220.841 7        47.186               
> 2019 06 07 04 52 44.0000000  0 13                                             
G01  20179909.206 7 106061919.571 7     -1046.751 7        46.489               
G03  23303005.580 6 122531545.398 6     -4256.637 6        38.989               
G03  23303005.580 6 122531545.398 6     -4256.609 6        38.988               
G11  20785273.582 8 109229831.662 8      -314.250 8        50.816               
G22  23031851.619 7 121088356.326 7     -3237.480 7        45.818               
G22  23031851.619 7 121088356.325 7     -3237.480 7        45.818               
G22  23031851.619 7 121088356.327 7     -3237.480 7        45.818               
G07  20650218.192 7 108518427.407 7      -219.503 7        47.108               
G22  23031851.619 7 121088356.325 7     -3237.481 7        45.819               
G07  20650218.192 7 108518427.407 7      -219.504 7        47.107               
G11  20785273.582 8 109229831.662 8      -314.250 8        50.816               
G01  20179909.206 7 106061919.571 7     -1046.751 7        46.489               
G07  20650218.192 7 108518427.407 7      -219.504 7        47.108               
> 2019 06 07 04 52 44.5000000  0 13                                             
G01  20180028.275 7 106063386.168 7     -1051.718 7        45.875               
G03  23302813.838 6 122534612.779 6     -4254.297 6        39.018               
G03  23302813.838 6 122534612.779 6     -4254.297 6        39.019               
G11  20785454.943 8 109230931.025 8      -312.462 8        50.152               
G22  23031757.632 7 121090917.285 7     -3236.697 7        46.142               
G22  23031757.632 7 121090917.285 7     -3236.697 7        46.142               
G22  23031757.632 7 121090917.286 7     -3236.697 7        46.142               
G07  20650412.644 7 108519479.851 7      -219.977 7        47.385               
G22  23031757.632 7 121090917.285 7     -3236.697 7        46.142               
G07  20650412.644 7 108519479.851 7      -219.977 7        47.386               
G11  20785454.943 8 109230931.025 8      -312.462 8        50.153               
G01  20180028.275 7 106063386.168 7     -1051.718 7        45.876               
G07  20650412.644 7 108519479.851 7      -219.977 7        47.386               
> 2019 06 07 04 52 45.0000000  0 13                                             
G01  20180095.999 7 106064632.146 7     -1044.553 7        44.472               
G03  23302571.309 6 122537459.729 6     -4252.544 6        38.347               
G03  23302571.320 6 122537459.729 6     -4252.540 6        38.347               
G11  20785594.669 8 109231809.840 8      -314.490 8        49.891               
G22  23031621.137 7 121093257.703 7     -3236.963 7        46.413               
G22  23031621.155 7 121093257.703 7     -3236.965 7        46.413               
G22  23031621.137 7 121093257.704 7     -3236.963 7        46.413               
G07  20650560.426 8 108520311.716 8      -220.549 8        48.245               
G22  23031621.155 7 121093257.703 7     -3236.965 7        46.413               
G07  20650560.426 8 108520311.716 8      -220.549 8        48.245               
G11  20785594.669 8 109231809.840 8      -314.490 8        49.891               
G01  20180095.991 7 106064632.146 7     -1044.553 7        44.471               
G07  20650560.426 8 108520311.716 8      -220.549 8        48.245               
> 2019 06 07 04 52 45.5000000  0 13                                             
G01  20180183.923 7 106065956.359 7     -1048.558 7        44.765               
G03  23302362.432 6 122540385.085 6     -4247.935 6        38.913               
G03  23302362.432 6 122540385.085 6     -4247.936 6        38.914               
G11  20785752.121 8 109232766.973 8      -314.569 8        50.580               
G22  23031503.714 7 121095676.455 7     -3238.278 7        46.576               
G22  23031503.714 7 121095676.455 7     -3238.277 7        46.575               
G22  23031503.714 7 121095676.456 7     -3238.278 7        46.576               
G07  20650720.969 8 108521221.836 8      -223.236 8        48.471               
G22  23031503.714 7 121095676.455 7     -3238.277 7        46.575               
G07  20650720.969 8 108521221.836 8      -223.240 8        48.471               
G11  20785752.121 8 109232766.973 8      -314.569 8        50.580               
G01  20180183.923 7 106065956.359 7     -1048.572 7        44.765               
G07  20650720.969 8 108521221.836 8      -223.240 8        48.471               
> 2019 06 07 04 52 46.0000000  0 13                                             
G01  20180269.206 7 106067264.155 7     -1048.894 7        45.095               
G03  23302123.889 6 122543294.062 6     -4255.929 6        38.848               
G03  23302123.889 6 122543294.062 6     -4255.929 6        38.848               
G11  20785906.672 8 109233707.735 8      -314.696 8        51.680               
G22  23031379.886 7 121098078.849 7     -3236.125 7        46.575               
G22  23031379.886 7 121098078.848 7     -3236.125 7        46.575               
G22  23031379.886 7 121098078.850 7     -3236.125 7        46.574               
G07  20650884.247 8 108522115.528 8      -215.788 8        48.812               
G22  23031379.886 7 121098078.849 7     -3236.123 7        46.575               
G07  20650884.247 8 108522115.528 8      -215.788 8        48.812               
G11  20785906.672 8 109233707.735 8      -314.696 8        51.680               
G01  20180269.196 7 106067264.155 7     -1048.895 7        45.094               
G07  20650884.247 8 108522115.528 8      -215.788 8        48.812               
> 2019 06 07 04 52 46.5000000  0 13                                             
G01  20180371.470 7 106068664.100 7     -1047.205 7        45.548               
G03  23301924.055 6 122546295.407 6     -4251.473 6        39.402               
G03  23301924.055 6 122546295.407 6     -4251.477 6        39.402               
G11  20786075.424 8 109234740.751 8      -311.885 8        51.589               
G22  23031272.958 7 121100573.505 7     -3237.423 7        46.684               
G22  23031272.958 7 121100573.505 7     -3237.423 7        46.684               
G22  23031272.965 7 121100573.506 7     -3237.421 7        46.685               
G07  20651059.679 8 108523101.421 8      -220.109 8        48.734               
G22  23031272.958 7 121100573.505 7     -3237.423 7        46.684               
G07  20651059.679 8 108523101.421 8      -220.109 8        48.734               
G11  20786075.424 8 109234740.751 8      -311.885 8        51.589               
G01  20180371.470 7 106068664.100 7     -1047.206 7        45.548               
G07  20651059.679 8 108523101.421 8      -220.109 8        48.735               
> 2019 06 07 04 52 47.0000000  0 13                                             
G01  20180457.454 7 106069980.333 7     -1048.739 7        45.961               
G03  23301699.153 6 122549213.158 6     -4258.871 6        39.162               
G03  23301699.153 6 122549213.158 6     -4258.871 6        39.162               
G11  20786230.804 8 109235690.090 8      -315.035 8        51.954               
G22  23031146.017 7 121102984.512 7     -3237.376 7        46.987               
G22  23031146.017 7 121102984.512 7     -3237.376 7        46.986               
G22  23031146.017 7 121102984.513 7     -3237.376 7        46.987               
G07  20651225.416 8 108524003.591 8      -218.992 8        48.184               
G22  23031146.017 7 121102984.512 7     -3237.376 7        46.987               
G07  20651225.406 8 108524003.591 8      -218.996 8        48.185               
G11  20786230.804 8 109235690.090 8      -315.035 8        51.954               
G01  20180457.454 7 106069980.333 7     -1048.739 7        45.961               
G07  20651225.406 8 108524003.591 8      -218.996 8        48.185               
> 2019 06 07 04 52 47.5000000  0 13                                             
G01  20180525.455 7 106071218.987 7     -1048.525 7        45.894               
G03  23301459.980 6 122552053.482 6     -4248.693 6        38.828               
G03  23301459.980 6 122552053.482 6     -4248.693 6        38.828               
G11  20786372.374 8 109236561.935 8      -313.538 8        51.528               
G22  23031005.981 7 121105318.026 7     -3237.372 7        46.653               
G22  23031005.981 7 121105318.026 7     -3237.372 7        46.653               
G22  23031005.981 7 121105318.027 7     -3237.372 7        46.653               
G07  20651371.254 7 108524828.224 7      -218.986 7        47.744               
G22  23031005.981 7 121105318.026 7     -3237.372 7        46.653               
G07  20651371.254 7 108524828.224 7      -218.986 7        47.744               
G11  20786372.374 8 109236561.935 8      -313.538 8        51.528               
G01  20180525.455 7 106071218.987 7     -1048.525 7        45.894               
G07  20651371.254 7 108524828.224 7      -218.987 7        47.744               
> 2019 06 07 04 52 48.0000000  0 13                                             
G01  20180606.689 7 106072522.177 7     -1043.927 7        46.399               
G03  23301234.956 6 122554958.460 6     -4244.195 6        38.038               
G03  23301234.956 6 122554958.460 6     -4244.196 6        38.038               
G11  20786522.917 8 109237498.385 8      -312.103 8        51.767               
G22  23030878.419 7 121107716.167 7     -3235.906 7        45.684               
G22  23030878.430 7 121107716.167 7     -3235.906 7        45.684               
G22  23030878.419 7 121107716.168 7     -3235.906 7        45.684               
G07  20651533.148 7 108525717.408 7      -219.594 7        47.752               
G22  23030878.419 7 121107716.167 7     -3235.906 7        45.684               
G07  20651533.148 7 108525717.408 7      -219.594 7        47.752               
G11  20786522.917 8 109237498.385 8      -312.103 8        51.766               
G01  20180606.689 7 106072522.177 7     -1043.921 7        46.399               
G07  20651533.148 7 108525717.408 7      -219.594 7        47.752               
> 2019 06 07 04 52 48.5000000  0 13                                             
G01  20180707.512 7 106073904.864 7     -1044.958 7        46.314               
G03  23301027.962 6 122557943.079 6     -4248.996 6        36.506               
G03  23301027.973 6 122557943.079 6     -4248.996 6        36.506               
G11  20786691.597 8 109238514.397 8      -312.788 8        52.254               
G22  23030766.688 7 121110193.881 7     -3238.266 7        45.106               
G22  23030766.688 7 121110193.881 7     -3238.266 7        45.106               
G22  23030766.688 7 121110193.882 7     -3238.266 7        45.106               
G07  20651706.479 7 108526686.091 7      -218.031 7        47.517               
G22  23030766.688 7 121110193.881 7     -3238.266 7        45.106               
G07  20651706.479 7 108526686.091 7      -218.031 7        47.517               
G11  20786691.597 8 109238514.397 8      -312.788 8        52.254               
G01  20180707.512 7 106073904.864 7     -1044.959 7        46.315               
G07  20651706.479 7 108526686.091 7      -218.031 7        47.517               
> 2019 06 07 04 52 49.0000000  0 13                                             
G01  20180785.234 7 106075186.284 7     -1048.142 7        45.850               
G03  23300816.680 6 122560826.564 6     -4250.516 6        37.257               
G03  23300816.680 6 122560826.564 6     -4250.518 6        37.256               
G11  20786840.303 8 109239429.230 8      -312.377 8        52.171               
G22  23030632.620 7 121112570.398 7     -3239.174 7        45.152               
G22  23030632.620 7 121112570.398 7     -3239.174 7        45.152               
G22  23030632.620 7 121112570.400 7     -3239.174 7        45.152               
G07  20651864.714 8 108527553.543 8      -216.491 8        48.093               
G22  23030632.620 7 121112570.398 7     -3239.174 7        45.153               
G07  20651864.714 8 108527553.543 8      -216.491 8        48.093               
G11  20786840.303 8 109239429.230 8      -312.377 8        52.171               
G01  20180785.234 7 106075186.284 7     -1048.142 7        45.850               
G07  20651864.704 8 108527553.543 8      -216.491 8        48.093               
> 2019 06 07 04 52 49.5000000  0 13                                             
G01  20180881.045 7 106076553.030 7     -1046.335 7        45.907               
G03  23300600.825 6 122563795.520 6     -4250.874 6        36.962               
G03  23300600.771 6 122563795.520 6     -4250.897 6        36.964               
G11  20787003.835 8 109240429.423 8      -312.888 8        51.913               
G22  23030520.360 7 121115032.327 7     -3238.559 7        45.001               
G22  23030520.360 7 121115032.327 7     -3238.559 7        45.001               
G22  23030520.360 7 121115032.328 7     -3238.559 7        45.001               
G07  20652034.042 8 108528506.318 8      -218.161 8        48.130               
G22  23030520.360 7 121115032.327 7     -3238.559 7        45.001               
G07  20652034.042 8 108528506.318 8      -218.161 8        48.130               
G11  20787003.835 8 109240429.423 8      -312.888 8        51.913               
G01  20180881.045 7 106076553.030 7     -1046.335 7        45.907               
G07  20652034.042 8 108528506.318 8      -218.161 8        48.130               
> 2019 06 07 04 52 50.0000000  0 13                                             
G01  20180934.574 7 106077737.142 7     -1048.933 7        45.369               
G03  23300373.478 6 122566581.985 6     -4246.464 6        38.179               
G03  23300373.507 6 122566581.985 6     -4246.446 6        38.181               
G11  20787134.062 8 109241247.086 8      -312.011 8        51.896               
G22  23030359.351 7 121117311.701 7     -3236.874 7        45.340               
G22  23030359.351 7 121117311.701 7     -3236.874 7        45.340               
G22  23030359.351 7 121117311.702 7     -3236.874 7        45.340               
G07  20652171.802 8 108529276.512 8      -219.879 8        48.085               
G22  23030359.351 7 121117311.701 7     -3236.875 7        45.340               
G07  20652171.802 8 108529276.512 8      -219.879 8        48.084               
G11  20787134.062 8 109241247.086 8      -312.011 8        51.896               
G01  20180934.574 7 106077737.142 7     -1048.933 7        45.369               
G07  20652171.794 8 108529276.512 8      -219.879 8        48.084               
> 2019 06 07 04 52 50.5000000  0 13                                             
G01  20181037.505 7 106079131.090 7     -1047.354 7        45.116               
G03  23300180.437 6 122569578.467 6     -4251.704 6        39.271               
G03  23300180.437 6 122569578.467 6     -4251.691 6        39.270               
G11  20787304.161 8 109242274.649 8      -311.691 8        51.769               
G22  23030245.085 7 121119800.997 7     -3233.985 7        44.449               
G22  23030245.085 7 121119800.997 7     -3233.985 7        44.449               
G22  23030245.085 7 121119800.998 7     -3233.985 7        44.449               
G07  20652350.797 8 108530256.552 8      -218.228 8        48.327               
G22  23030245.085 7 121119800.997 7     -3233.985 7        44.448               
G07  20652350.797 8 108530256.552 8      -218.228 8        48.327               
G11  20787304.161 8 109242274.649 8      -311.691 8        51.769               
G01  20181037.505 7 106079131.090 7     -1047.354 7        45.116               
G07  20652350.797 8 108530256.552 8      -218.228 8        48.328               
> 2019 06 07 04 52 51.0000000  0 13                                             
G01  20181112.763 7 106080407.814 7     -1046.021 7        44.630               
G03  23299958.793 6 122572457.835 6     -4250.652 6        39.962               
G03  23299958.793 6 122572457.835 6     -4250.639 6        39.962               
G11  20787449.586 8 109243185.060 8      -312.091 8        51.657               
G22  23030110.685 7 121122173.153 7     -3234.287 7        43.687               
G22  23030110.685 7 121122173.153 7     -3234.287 7        43.687               
G22  23030110.685 7 121122173.155 7     -3234.287 7        43.687               
G07  20652509.175 8 108531119.379 8      -217.164 8        48.664               
G22  23030110.685 7 121122173.153 7     -3234.270 7        43.687               
G07  20652509.175 8 108531119.379 8      -217.164 8        48.665               
G11  20787449.586 8 109243185.060 8      -312.091 8        51.657               
G01  20181112.745 7 106080407.814 7     -1046.026 7        44.631               
G07  20652509.175 8 108531119.379 8      -217.164 8        48.665               
> 2019 06 07 04 52 51.5000000  0 13                                             
G01  20181208.352 7 106081759.621 7     -1045.083 7        45.177               
G03  23299746.161 6 122575412.431 6     -4248.200 6        40.445               
G03  23299746.161 6 122575412.431 6     -4248.209 6        40.445               
G11  20787613.513 8 109244170.623 8      -311.985 8        51.791               
G22  23029997.286 7 121124620.471 7     -3231.948 7        44.341               
G22  23029997.286 7 121124620.470 7     -3231.948 7        44.341               
G22  23029997.286 7 121124620.472 7     -3231.949 7        44.341               
G07  20652677.222 7 108532057.287 7      -216.289 7        47.986               
G22  23029997.286 7 121124620.471 7     -3231.948 7        44.340               
G07  20652677.222 7 108532057.287 7      -216.289 7        47.986               
G11  20787613.506 8 109244170.623 8      -311.985 8        51.791               
G01  20181208.352 7 106081759.621 7     -1045.083 7        45.179               
G07  20652677.222 7 108532057.287 7      -216.289 7        47.986               
> 2019 06 07 04 52 52.0000000  0 13                                             
G01  20181285.880 7 106083039.042 7     -1042.833 7        45.721               
G03  23299520.458 6 122578294.802 6     -4250.738 6        40.525               
G03  23299520.458 6 122578294.802 6     -4250.739 6        40.525               
G11  20787761.702 8 109245083.859 8      -312.292 8        51.803               
G22  23029872.443 7 121126995.500 7     -3236.937 7        44.424               
G22  23029872.453 7 121126995.500 7     -3236.946 7        44.423               
G22  23029872.453 7 121126995.501 7     -3236.946 7        44.423               
G07  20652829.500 7 108532922.843 7      -216.680 7        46.190               
G22  23029872.443 7 121126995.500 7     -3236.936 7        44.424               
G07  20652829.500 7 108532922.843 7      -216.680 7        46.190               
G11  20787761.702 8 109245083.859 8      -312.292 8        51.803               
G01  20181285.880 7 106083039.042 7     -1042.834 7        45.722               
G07  20652829.500 7 108532922.843 7      -216.680 7        46.190               
> 2019 06 07 04 52 52.5000000  0 13                                             
G01  20181347.149 7 106084247.173 7     -1042.261 7        45.295               
G03  23299272.509 6 122581105.976 6     -4243.428 6        40.382               
G03  23299272.509 6 122581105.976 6     -4243.428 6        40.380               
G11  20787895.864 8 109245925.865 8      -312.470 8        51.280               
G22  23029726.709 7 121129299.302 7     -3233.593 7        44.039               
G22  23029726.709 7 121129299.302 7     -3233.593 7        44.038               
G22  23029726.699 7 121129299.303 7     -3233.593 7        44.038               
G07  20652974.720 7 108533717.124 7      -212.512 7        46.595               
G22  23029726.709 7 121129299.302 7     -3233.593 7        44.039               
G07  20652974.720 7 108533717.124 7      -212.512 7        46.595               
G11  20787895.864 8 109245925.865 8      -312.470 8        51.279               
G01  20181347.149 7 106084247.173 7     -1042.261 7        45.295               
G07  20652974.720 7 108533717.124 7      -212.512 7        46.595               
> 2019 06 07 04 52 53.0000000  0 13                                             
G01  20181424.404 7 106085512.246 7     -1044.017 7        44.967               
G03  23299042.286 6 122583974.273 6     -4246.501 6        39.882               
G03  23299042.286 6 122583974.273 6     -4246.501 6        39.883               
G11  20788042.195 8 109246824.900 8      -309.357 8        51.346               
G22  23029601.089 7 121131660.129 7     -3238.063 7        44.436               
G22  23029601.089 7 121131660.128 7     -3238.064 7        44.436               
G22  23029601.089 7 121131660.130 7     -3238.064 7        44.436               
G07  20653131.865 7 108534568.367 7      -214.507 7        47.764               
G22  23029601.089 7 121131660.128 7     -3238.063 7        44.436               
